{
  "6418436193": {
    "used_clusters": [
      112,
      65,
      163,
      21,
      62,
      25,
      142,
      46
    ],
    "last_request_hash": null,
    "cached_routes": [
      {
        "day": 1,
        "total_estimated_time_min": 150,
        "points": [
          {
            "name": "Дорога жизни 1 км",
            "coordinates": [
              30.5193198,
              59.9854106
            ],
            "estimated_time": 30
          },
          {
            "name": "Памятник регулировщице",
            "coordinates": [
              30.5193001,
              59.9853346
            ],
            "estimated_time": 30
          },
          {
            "name": "Дорога жизни — первый километр",
            "coordinates": [
              30.5193536,
              59.9853909
            ],
            "estimated_time": 30
          },
          {
            "name": "Зенитка",
            "coordinates": [
              30.5193819,
              59.9853543
            ],
            "estimated_time": 30
          }
        ],
        "yandex_url": "https://yandex.ru/maps/2/saint-petersburg/?ll=30.310512,59.908814&mode=routes&rtext=59.908814,30.310512~59.9854106,30.5193198~59.9853346,30.5193001~59.9853909,30.5193536~59.9853543,30.5193819&rtt=pd"
      },
      {
        "day": 2,
        "total_estimated_time_min": 284,
        "points": [
          {
            "name": "Музей «Шалаш В. И. Ленина»",
            "coordinates": [
              30.0312076,
              60.0822115
            ],
            "estimated_time": 30
          },
          {
            "name": "Зелёный кабинет",
            "coordinates": [
              30.0306983,
              60.0816204
            ],
            "estimated_time": 30
          },
          {
            "name": "Шалаш Владимира Ильича Ленина",
            "coordinates": [
              30.0313332,
              60.0816749
            ],
            "estimated_time": 30
          },
          {
            "name": "В.И. Ленину",
            "coordinates": [
              30.0286049,
              60.0831503
            ],
            "estimated_time": 30
          },
          {
            "name": "В. И. Ленин",
            "coordinates": [
              30.0317766,
              60.0822836
            ],
            "estimated_time": 30
          },
          {
            "name": "В. И. Ленин",
            "coordinates": [
              30.0309337,
              60.0817982
            ],
            "estimated_time": 30
          },
          {
            "name": "Гранитный шалаш",
            "coordinates": [
              30.0311126,
              60.08164
            ],
            "estimated_time": 30
          },
          {
            "name": null,
            "coordinates": [
              30.0285491,
              60.0832855
            ],
            "estimated_time": 30
          }
        ],
        "yandex_url": "https://yandex.ru/maps/2/saint-petersburg/?ll=30.310512,59.908814&mode=routes&rtext=59.908814,30.310512~60.0822115,30.0312076~60.0816204,30.0306983~60.0816749,30.0313332~60.0831503,30.0286049~60.0822836,30.0317766~60.0817982,30.0309337~60.08164,30.0311126~60.0832855,30.0285491&rtt=pd"
      }
    ],
    "previous_trips": [
      {
        "date": "2025-05-01 20:02:53.281381",
        "routes": [
          {
            "day": 1,
            "total_estimated_time_min": 96,
            "points": [
              {
                "name": "Молох тоталитаризма",
                "coordinates": [
                  30.1905525,
                  60.0930308
                ],
                "estimated_time": 30
              },
              {
                "name": "Левашовская пустошь",
                "coordinates": [
                  30.1908061,
                  60.0938161
                ],
                "estimated_time": 30
              }
            ],
            "yandex_url": "https://yandex.ru/maps/2/saint-petersburg/?ll=30.310512,59.908814&mode=routes&rtext=59.908814,30.310512~60.0930308,30.1905525~60.0938161,30.1908061&rtt=pd"
          },
          {
            "day": 2,
            "total_estimated_time_min": 103,
            "points": [
              {
                "name": "3-й Южный форт",
                "coordinates": [
                  29.6955228,
                  59.9723387
                ],
                "estimated_time": 30
              },
              {
                "name": "ДОТ КронУР",
                "coordinates": [
                  29.6953355,
                  59.9731863
                ],
                "estimated_time": 30
              }
            ],
            "yandex_url": "https://yandex.ru/maps/2/saint-petersburg/?ll=30.310512,59.908814&mode=routes&rtext=59.908814,30.310512~59.9723387,29.6955228~59.9731863,29.6953355&rtt=pd"
          }
        ]
      },
      {
        "date": "2025-05-01 20:03:02.650465",
        "routes": [
          {
            "day": 1,
            "total_estimated_time_min": 125,
            "points": [
              {
                "name": "2-й Южный форт",
                "coordinates": [
                  29.7044972,
                  59.9576873
                ],
                "estimated_time": 30
              },
              {
                "name": "1-й Южный форт",
                "coordinates": [
                  29.7040191,
                  59.949576
                ],
                "estimated_time": 30
              }
            ],
            "yandex_url": "https://yandex.ru/maps/2/saint-petersburg/?ll=30.310512,59.908814&mode=routes&rtext=59.908814,30.310512~59.9576873,29.7044972~59.949576,29.7040191&rtt=pd"
          },
          {
            "day": 2,
            "total_estimated_time_min": 133,
            "points": [
              {
                "name": "Штурм",
                "coordinates": [
                  30.5731233,
                  59.7075164
                ],
                "estimated_time": 30
              },
              {
                "name": "Противотанковые надолбы",
                "coordinates": [
                  30.5668722,
                  59.7108528
                ],
                "estimated_time": 30
              },
              {
                "name": "Передний край обороны Ленинграда",
                "coordinates": [
                  30.5660186,
                  59.7113916
                ],
                "estimated_time": 30
              }
            ],
            "yandex_url": "https://yandex.ru/maps/2/saint-petersburg/?ll=30.310512,59.908814&mode=routes&rtext=59.908814,30.310512~59.7075164,30.5731233~59.7108528,30.5668722~59.7113916,30.5660186&rtt=pd"
          }
        ]
      },
      {
        "date": "2025-05-01 20:06:38.008901",
        "routes": [
          {
            "day": 1,
            "total_estimated_time_min": 82,
            "points": [
              {
                "name": "Вертолет МИ-4",
                "coordinates": [
                  30.3036185,
                  59.8104717
                ],
                "estimated_time": 30
              },
              {
                "name": null,
                "coordinates": [
                  30.2972093,
                  59.8108156
                ],
                "estimated_time": 30
              }
            ],
            "yandex_url": "https://yandex.ru/maps/2/saint-petersburg/?ll=30.310512,59.908814&mode=routes&rtext=59.908814,30.310512~59.8104717,30.3036185~59.8108156,30.2972093&rtt=pd"
          },
          {
            "day": 2,
            "total_estimated_time_min": 141,
            "points": [
              {
                "name": "Северная батарея № 2",
                "coordinates": [
                  29.7909317,
                  60.0280059
                ],
                "estimated_time": 30
              },
              {
                "name": "Форты в акватории Финского залива у Кронштадта",
                "coordinates": [
                  29.796721,
                  60.0182827
                ],
                "estimated_time": 30
              },
              {
                "name": "2-й Северный форт",
                "coordinates": [
                  29.7908217,
                  60.0283248
                ],
                "estimated_time": 30
              }
            ],
            "yandex_url": "https://yandex.ru/maps/2/saint-petersburg/?ll=30.310512,59.908814&mode=routes&rtext=59.908814,30.310512~60.0280059,29.7909317~60.0182827,29.796721~60.0283248,29.7908217&rtt=pd"
          }
        ]
      },
      {
        "date": "2025-05-01 20:09:57.726195",
        "routes": [
          {
            "day": 1,
            "total_estimated_time_min": 150,
            "points": [
              {
                "name": "Дорога жизни 1 км",
                "coordinates": [
                  30.5193198,
                  59.9854106
                ],
                "estimated_time": 30
              },
              {
                "name": "Памятник регулировщице",
                "coordinates": [
                  30.5193001,
                  59.9853346
                ],
                "estimated_time": 30
              },
              {
                "name": "Дорога жизни — первый километр",
                "coordinates": [
                  30.5193536,
                  59.9853909
                ],
                "estimated_time": 30
              },
              {
                "name": "Зенитка",
                "coordinates": [
                  30.5193819,
                  59.9853543
                ],
                "estimated_time": 30
              }
            ],
            "yandex_url": "https://yandex.ru/maps/2/saint-petersburg/?ll=30.310512,59.908814&mode=routes&rtext=59.908814,30.310512~59.9854106,30.5193198~59.9853346,30.5193001~59.9853909,30.5193536~59.9853543,30.5193819&rtt=pd"
          },
          {
            "day": 2,
            "total_estimated_time_min": 284,
            "points": [
              {
                "name": "Музей «Шалаш В. И. Ленина»",
                "coordinates": [
                  30.0312076,
                  60.0822115
                ],
                "estimated_time": 30
              },
              {
                "name": "Зелёный кабинет",
                "coordinates": [
                  30.0306983,
                  60.0816204
                ],
                "estimated_time": 30
              },
              {
                "name": "Шалаш Владимира Ильича Ленина",
                "coordinates": [
                  30.0313332,
                  60.0816749
                ],
                "estimated_time": 30
              },
              {
                "name": "В.И. Ленину",
                "coordinates": [
                  30.0286049,
                  60.0831503
                ],
                "estimated_time": 30
              },
              {
                "name": "В. И. Ленин",
                "coordinates": [
                  30.0317766,
                  60.0822836
                ],
                "estimated_time": 30
              },
              {
                "name": "В. И. Ленин",
                "coordinates": [
                  30.0309337,
                  60.0817982
                ],
                "estimated_time": 30
              },
              {
                "name": "Гранитный шалаш",
                "coordinates": [
                  30.0311126,
                  60.08164
                ],
                "estimated_time": 30
              },
              {
                "name": null,
                "coordinates": [
                  30.0285491,
                  60.0832855
                ],
                "estimated_time": 30
              }
            ],
            "yandex_url": "https://yandex.ru/maps/2/saint-petersburg/?ll=30.310512,59.908814&mode=routes&rtext=59.908814,30.310512~60.0822115,30.0312076~60.0816204,30.0306983~60.0816749,30.0313332~60.0831503,30.0286049~60.0822836,30.0317766~60.0817982,30.0309337~60.08164,30.0311126~60.0832855,30.0285491&rtt=pd"
          }
        ]
      }
    ]
  },
  "8149368586": {
    "used_clusters": [
      65,
      163,
      102,
      40,
      170,
      142,
      46,
      112,
      110,
      21,
      25,
      91,
      157,
      62
    ],
    "last_request_hash": "11c1e139bf792bd8ef34f5b420644f40aa0fd0e58dcc76b0c18f2d061a49ca5b",
    "cached_routes": [
      {
        "day": 1,
        "total_estimated_time_min": 83,
        "points": [
          {
            "name": "З. Г. Колобанову",
            "coordinates": [
              30.147185,
              59.7907381
            ],
            "estimated_time": 30
          },
          {
            "name": "Защитникам Ленинграда",
            "coordinates": [
              30.1577556,
              59.7924965
            ],
            "estimated_time": 30
          }
        ],
        "yandex_url": "https://yandex.ru/maps/2/saint-petersburg/?ll=30.310512,59.908814&mode=routes&rtext=59.908814,30.310512~59.7907381,30.147185~59.7924965,30.1577556&rtt=pd"
      },
      {
        "day": 2,
        "total_estimated_time_min": 88,
        "points": [
          {
            "name": "С. П. Королёв",
            "coordinates": [
              30.2773813,
              60.0120506
            ],
            "estimated_time": 30
          },
          {
            "name": "Фаине Раневской",
            "coordinates": [
              30.2760056,
              60.0157275
            ],
            "estimated_time": 30
          }
        ],
        "yandex_url": "https://yandex.ru/maps/2/saint-petersburg/?ll=30.310512,59.908814&mode=routes&rtext=59.908814,30.310512~60.0120506,30.2773813~60.0157275,30.2760056&rtt=pd"
      }
    ],
    "previous_trips": [
      {
        "date": "2025-05-01 20:03:06.335194",
        "routes": [
          {
            "day": 1,
            "total_estimated_time_min": 96,
            "points": [
              {
                "name": "Молох тоталитаризма",
                "coordinates": [
                  30.1905525,
                  60.0930308
                ],
                "estimated_time": 30
              },
              {
                "name": "Левашовская пустошь",
                "coordinates": [
                  30.1908061,
                  60.0938161
                ],
                "estimated_time": 30
              }
            ],
            "yandex_url": "https://yandex.ru/maps/2/saint-petersburg/?ll=30.310512,59.908814&mode=routes&rtext=59.908814,30.310512~60.0930308,30.1905525~60.0938161,30.1908061&rtt=pd"
          },
          {
            "day": 2,
            "total_estimated_time_min": 103,
            "points": [
              {
                "name": "3-й Южный форт",
                "coordinates": [
                  29.6955228,
                  59.9723387
                ],
                "estimated_time": 30
              },
              {
                "name": "ДОТ КронУР",
                "coordinates": [
                  29.6953355,
                  59.9731863
                ],
                "estimated_time": 30
              }
            ],
            "yandex_url": "https://yandex.ru/maps/2/saint-petersburg/?ll=30.310512,59.908814&mode=routes&rtext=59.908814,30.310512~59.9723387,29.6955228~59.9731863,29.6953355&rtt=pd"
          }
        ]
      },
      {
        "date": "2025-05-01 20:03:10.973657",
        "routes": [
          {
            "day": 1,
            "total_estimated_time_min": 125,
            "points": [
              {
                "name": "2-й Южный форт",
                "coordinates": [
                  29.7044972,
                  59.9576873
                ],
                "estimated_time": 30
              },
              {
                "name": "1-й Южный форт",
                "coordinates": [
                  29.7040191,
                  59.949576
                ],
                "estimated_time": 30
              }
            ],
            "yandex_url": "https://yandex.ru/maps/2/saint-petersburg/?ll=30.310512,59.908814&mode=routes&rtext=59.908814,30.310512~59.9576873,29.7044972~59.949576,29.7040191&rtt=pd"
          },
          {
            "day": 2,
            "total_estimated_time_min": 133,
            "points": [
              {
                "name": "Штурм",
                "coordinates": [
                  30.5731233,
                  59.7075164
                ],
                "estimated_time": 30
              },
              {
                "name": "Противотанковые надолбы",
                "coordinates": [
                  30.5668722,
                  59.7108528
                ],
                "estimated_time": 30
              },
              {
                "name": "Передний край обороны Ленинграда",
                "coordinates": [
                  30.5660186,
                  59.7113916
                ],
                "estimated_time": 30
              }
            ],
            "yandex_url": "https://yandex.ru/maps/2/saint-petersburg/?ll=30.310512,59.908814&mode=routes&rtext=59.908814,30.310512~59.7075164,30.5731233~59.7108528,30.5668722~59.7113916,30.5660186&rtt=pd"
          }
        ]
      },
      {
        "date": "2025-05-01 20:03:18.119358",
        "routes": [
          {
            "day": 1,
            "total_estimated_time_min": 82,
            "points": [
              {
                "name": "Вертолет МИ-4",
                "coordinates": [
                  30.3036185,
                  59.8104717
                ],
                "estimated_time": 30
              },
              {
                "name": null,
                "coordinates": [
                  30.2972093,
                  59.8108156
                ],
                "estimated_time": 30
              }
            ],
            "yandex_url": "https://yandex.ru/maps/2/saint-petersburg/?ll=30.310512,59.908814&mode=routes&rtext=59.908814,30.310512~59.8104717,30.3036185~59.8108156,30.2972093&rtt=pd"
          },
          {
            "day": 2,
            "total_estimated_time_min": 141,
            "points": [
              {
                "name": "Северная батарея № 2",
                "coordinates": [
                  29.7909317,
                  60.0280059
                ],
                "estimated_time": 30
              },
              {
                "name": "Форты в акватории Финского залива у Кронштадта",
                "coordinates": [
                  29.796721,
                  60.0182827
                ],
                "estimated_time": 30
              },
              {
                "name": "2-й Северный форт",
                "coordinates": [
                  29.7908217,
                  60.0283248
                ],
                "estimated_time": 30
              }
            ],
            "yandex_url": "https://yandex.ru/maps/2/saint-petersburg/?ll=30.310512,59.908814&mode=routes&rtext=59.908814,30.310512~60.0280059,29.7909317~60.0182827,29.796721~60.0283248,29.7908217&rtt=pd"
          }
        ]
      },
      {
        "date": "2025-05-01 20:11:28.578252",
        "routes": [
          {
            "day": 1,
            "total_estimated_time_min": 150,
            "points": [
              {
                "name": "Дорога жизни 1 км",
                "coordinates": [
                  30.5193198,
                  59.9854106
                ],
                "estimated_time": 30
              },
              {
                "name": "Памятник регулировщице",
                "coordinates": [
                  30.5193001,
                  59.9853346
                ],
                "estimated_time": 30
              },
              {
                "name": "Дорога жизни — первый километр",
                "coordinates": [
                  30.5193536,
                  59.9853909
                ],
                "estimated_time": 30
              },
              {
                "name": "Зенитка",
                "coordinates": [
                  30.5193819,
                  59.9853543
                ],
                "estimated_time": 30
              }
            ],
            "yandex_url": "https://yandex.ru/maps/2/saint-petersburg/?ll=30.310512,59.908814&mode=routes&rtext=59.908814,30.310512~59.9854106,30.5193198~59.9853346,30.5193001~59.9853909,30.5193536~59.9853543,30.5193819&rtt=pd"
          },
          {
            "day": 2,
            "total_estimated_time_min": 284,
            "points": [
              {
                "name": "Музей «Шалаш В. И. Ленина»",
                "coordinates": [
                  30.0312076,
                  60.0822115
                ],
                "estimated_time": 30
              },
              {
                "name": "Зелёный кабинет",
                "coordinates": [
                  30.0306983,
                  60.0816204
                ],
                "estimated_time": 30
              },
              {
                "name": "Шалаш Владимира Ильича Ленина",
                "coordinates": [
                  30.0313332,
                  60.0816749
                ],
                "estimated_time": 30
              },
              {
                "name": "В.И. Ленину",
                "coordinates": [
                  30.0286049,
                  60.0831503
                ],
                "estimated_time": 30
              },
              {
                "name": "В. И. Ленин",
                "coordinates": [
                  30.0317766,
                  60.0822836
                ],
                "estimated_time": 30
              },
              {
                "name": "В. И. Ленин",
                "coordinates": [
                  30.0309337,
                  60.0817982
                ],
                "estimated_time": 30
              },
              {
                "name": "Гранитный шалаш",
                "coordinates": [
                  30.0311126,
                  60.08164
                ],
                "estimated_time": 30
              },
              {
                "name": null,
                "coordinates": [
                  30.0285491,
                  60.0832855
                ],
                "estimated_time": 30
              }
            ],
            "yandex_url": "https://yandex.ru/maps/2/saint-petersburg/?ll=30.310512,59.908814&mode=routes&rtext=59.908814,30.310512~60.0822115,30.0312076~60.0816204,30.0306983~60.0816749,30.0313332~60.0831503,30.0286049~60.0822836,30.0317766~60.0817982,30.0309337~60.08164,30.0311126~60.0832855,30.0285491&rtt=pd"
          }
        ]
      },
      {
        "date": "2025-05-01 20:11:36.953088",
        "routes": [
          {
            "day": 1,
            "total_estimated_time_min": 273,
            "points": [
              {
                "name": "Памятная стела «Советская эпоха»",
                "coordinates": [
                  30.1939276,
                  59.8331918
                ],
                "estimated_time": 30
              },
              {
                "name": "Место проведения операции Подкоп",
                "coordinates": [
                  30.1820719,
                  59.831018
                ],
                "estimated_time": 30
              },
              {
                "name": "Обелиск воинского захоронения «Лигово»",
                "coordinates": [
                  30.1867123,
                  59.8243064
                ],
                "estimated_time": 30
              },
              {
                "name": "Передний край обороны Ленинграда",
                "coordinates": [
                  30.1893809,
                  59.8287137
                ],
                "estimated_time": 30
              },
              {
                "name": "Памятная стела «Советская эпоха»",
                "coordinates": [
                  30.1937483,
                  59.8327954
                ],
                "estimated_time": 30
              },
              {
                "name": null,
                "coordinates": [
                  30.169239,
                  59.834086
                ],
                "estimated_time": 30
              },
              {
                "name": null,
                "coordinates": [
                  30.1684769,
                  59.8339699
                ],
                "estimated_time": 30
              },
              {
                "name": "Мемориальные захоронения 2-й Мировой войны",
                "coordinates": [
                  30.1684649,
                  59.8339567
                ],
                "estimated_time": 30
              }
            ],
            "yandex_url": "https://yandex.ru/maps/2/saint-petersburg/?ll=30.310512,59.908814&mode=routes&rtext=59.908814,30.310512~59.8331918,30.1939276~59.831018,30.1820719~59.8243064,30.1867123~59.8287137,30.1893809~59.8327954,30.1937483~59.834086,30.169239~59.8339699,30.1684769~59.8339567,30.1684649&rtt=pd"
          },
          {
            "day": 2,
            "total_estimated_time_min": 89,
            "points": [
              {
                "name": null,
                "coordinates": [
                  30.2007738,
                  59.9815244
                ],
                "estimated_time": 30
              },
              {
                "name": "Аллея парламентаризма",
                "coordinates": [
                  30.1962241,
                  59.982345
                ],
                "estimated_time": 30
              }
            ],
            "yandex_url": "https://yandex.ru/maps/2/saint-petersburg/?ll=30.310512,59.908814&mode=routes&rtext=59.908814,30.310512~59.9815244,30.2007738~59.982345,30.1962241&rtt=pd"
          }
        ]
      },
      {
        "date": "2025-05-01 20:11:44.822813",
        "routes": [
          {
            "day": 1,
            "total_estimated_time_min": 86,
            "points": [
              {
                "name": "Памятный знак «Ржевская линия обороны»",
                "coordinates": [
                  30.4912166,
                  59.950901
                ],
                "estimated_time": 30
              },
              {
                "name": null,
                "coordinates": [
                  30.4921873,
                  59.9456983
                ],
                "estimated_time": 30
              }
            ],
            "yandex_url": "https://yandex.ru/maps/2/saint-petersburg/?ll=30.310512,59.908814&mode=routes&rtext=59.908814,30.310512~59.950901,30.4912166~59.9456983,30.4921873&rtt=pd"
          },
          {
            "day": 2,
            "total_estimated_time_min": 118,
            "points": [
              {
                "name": "Закладной крест на месте храма \"Архистратига Божьего Михаила и прочих Небесных Сил Бесплотных\"",
                "coordinates": [
                  30.253118,
                  60.017515
                ],
                "estimated_time": 30
              },
              {
                "name": "Первым лётчикам России",
                "coordinates": [
                  30.258442,
                  60.0164884
                ],
                "estimated_time": 30
              },
              {
                "name": "И. И. Сикорскому",
                "coordinates": [
                  30.2637264,
                  60.0132161
                ],
                "estimated_time": 30
              }
            ],
            "yandex_url": "https://yandex.ru/maps/2/saint-petersburg/?ll=30.310512,59.908814&mode=routes&rtext=59.908814,30.310512~60.017515,30.253118~60.0164884,30.258442~60.0132161,30.2637264&rtt=pd"
          }
        ]
      },
      {
        "date": "2025-05-01 20:11:58.629165",
        "routes": [
          {
            "day": 1,
            "total_estimated_time_min": 83,
            "points": [
              {
                "name": "З. Г. Колобанову",
                "coordinates": [
                  30.147185,
                  59.7907381
                ],
                "estimated_time": 30
              },
              {
                "name": "Защитникам Ленинграда",
                "coordinates": [
                  30.1577556,
                  59.7924965
                ],
                "estimated_time": 30
              }
            ],
            "yandex_url": "https://yandex.ru/maps/2/saint-petersburg/?ll=30.310512,59.908814&mode=routes&rtext=59.908814,30.310512~59.7907381,30.147185~59.7924965,30.1577556&rtt=pd"
          },
          {
            "day": 2,
            "total_estimated_time_min": 88,
            "points": [
              {
                "name": "С. П. Королёв",
                "coordinates": [
                  30.2773813,
                  60.0120506
                ],
                "estimated_time": 30
              },
              {
                "name": "Фаине Раневской",
                "coordinates": [
                  30.2760056,
                  60.0157275
                ],
                "estimated_time": 30
              }
            ],
            "yandex_url": "https://yandex.ru/maps/2/saint-petersburg/?ll=30.310512,59.908814&mode=routes&rtext=59.908814,30.310512~60.0120506,30.2773813~60.0157275,30.2760056&rtt=pd"
          }
        ]
      }
    ]
  }
}